[
    {
        "_id": "jjjj",
        "id_number":"B65234350",
        "date": "2017-12-10T09:56:40.755Z",
        "shop": {
            "name": "Lamunpan Shop",
            "lat": "13.9336779",
            "long": "100.7173383",
            "location": {
                "locationcode": "100101",
                "subdistrict": "บึงคำพร้อย",
                "district": "ลำลูกกา",
                "province": "กรุงเทพมหานคร",
                "postcode": "10200",
                "address": "Tumbol Bungkham Amphoe Lamlukka Pathum Thani 12150"
            },
            "tel":"0874453719"
        },
        "customer": {
            "name": "tookta",
            "lat": "13.895969",
            "long": "100.6082733",
            "location": {
                "locationcode": "100101",
                "subdistrict": "อนุสาวรีย์",
                "district": "บางเขน",
                "province": "กรุงเทพมหานคร",
                "postcode": "10200",
                "address": "651 Phaholyothin Rd., Anusarit, Bangkhen, Bangkok 10220 Thailand"
            },
            "tel": "0864796913"
        }
    },
    {
        "_id": "jjjj1",
        "id_number":"B65234351",
        "date": "2017-12-14T09:56:40.755Z",
        "shop": {
            "name": "Unis cafe",
            "lat": "13.9018637",
            "long": "100.611331",
            "location": {
                "locationcode": "100101",
                "subdistrict": "สนามบิน",
                "district": "ดอนเมือง",
                "province": "กรุงเทพมหานคร",
                "postcode": "10200",
                "address": "10210 Phaholyothin Rd., Donmuang, Bangkok 10220, Thailand"
            },
            "tel":"0874453719"
        },
        "customer": {
            "name": "Nid Nid",
            "lat": "13.9110029",
            "long": "100.6168656",
            "location": {
                "locationcode": "100101",
                "subdistrict": "แขวงคลองถนน",
                "district": "สายไหม",
                "province": "กรุงเทพมหานคร",
                "postcode": "10200",
                "address": " 171 Moo 2 Phaholyothin Road, Khlong Toei, Sai Mai, Bangkok 10210"
            },
            "tel": "0864796913"
        }
    }
]